$GPGSV,1,1,04,01,00,000,00,02,00,000,00,03,00,000,00,04,00,000,00*79
$GPGLL,3400.075,S,15120.134,E,130112.402,A,A*46
$GPGSV,1,1,04,01,00,000,00,02,00,000,00,03,00,000,00,04,00,000,00*79
$GPGLL,3400.077,S,15120.134,E,130114.434,A,A*47
$GPGLL,3400.078,S,15120.134,E,130115.449,A,A*43
$GPGGA,130116.465,3400.079,S,15120.135,E,1,04,2.7,2.00,M,-33.92,M,,*6E
$GPRMC,130117.480,A,3400.080,S,15120.135,E,4.00,170.14,090814,0.0,E,A*1D
$GPGGA,130118.496,3400.081,S,15120.135,E,1,04,2.3,2.00,M,-33.92,M,,*6F
$GPGSA,A,3,01,02,03,04,00,00,00,00,00,00,00,00,1.0,2.3,1.6*31
$GPGLL,3400.084,S,15120.135,E,130120.496,A,A*45
$GPGSA,A,3,01,02,03,04,00,00,00,00,00,00,00,00,2.2,1.7,2.1*33
$GPGGA,130122.496,3400.086,S,15120.136,E,1,04,1.5,2.00,M,-33.92,M,,*67
$GPGSA,A,3,01,02,03,04,00,00,00,00,00,00,00,00,1.3,2.4,1.2*31
$GPGGA,130124.496,3400.088,S,15120.136,E,1,04,1.0,2.00,M,-33.92,M,,*6A
$GPRMC,130125.496,A,3400.089,S,15120.136,E,4.00,170.14,090814,0.0,E,A*11
$GPRMC,130126.496,A,3400.090,S,15120.137,E,4.00,170.14,090814,0.0,E,A*1B
$GPGGA,130127.496,3400.091,S,15120.137,E,1,04,2.1,2.00,M,-33.92,M,,*62
$GPGGA,130128.496,3400.092,S,15120.138,E,1,04,1.7,2.00,M,-33.92,M,,*64
$GPGSV,1,1,04,01,00,000,00,02,00,000,00,03,00,000,00,04,00,000,00*79
$GPRMC,130130.496,A,3400.093,S,15120.140,E,4.00,119.85,090814,0.0,E,A*18
$GPRMC,130131.496,A,3400.093,S,15120.141,E,4.00,119.85,090814,0.0,E,A*18
$GPGLL,3400.094,S,15120.142,E,130132.496,A,A*47
$GPGLL,3400.094,S,15120.143,E,130133.496,A,A*47
$GPGSV,1,1,04,01,00,000,00,02,00,000,00,03,00,000,00,04,00,000,00*79
$GPGSV,1,1,04,01,00,000,00,02,00,000,00,03,00,000,00,04,00,000,00*79
$GPRMC,130136.512,A,3400.096,S,15120.146,E,4.00,114.71,090814,0.0,E,A*16
$GPGGA,130137.496,3400.096,S,15120.147,E,1,04,1.2,2.00,M,-33.92,M,,*63
$GPRMC,130138.496,A,3400.097,S,15120.148,E,4.00,114.71,090814,0.0,E,A*1A
$GPRMC,130139.496,A,3400.097,S,15120.149,E,4.00,114.71,090814,0.0,E,A*1A
$GPGSA,A,3,01,02,03,04,00,00,00,00,00,00,00,00,2.6,1.5,1.7*30
$GPRMC,130141.496,A,3400.098,S,15120.151,E,4.00,114.71,090814,0.0,E,A*13
$GPGGA,130142.496,3400.099,S,15120.152,E,1,04,1.6,2.00,M,-33.92,M,,*6E
$GPGGA,130143.496,3400.099,S,15120.153,E,1,04,1.2,2.00,M,-33.92,M,,*6A
$GPRMC,130144.496,A,3400.100,S,15120.154,E,4.00,114.71,090814,0.0,E,A*13
$GPGSA,A,3,01,02,03,04,00,00,00,00,00,00,00,00,1.6,2.1,1.7*34
$GPGSV,1,1,04,01,00,000,00,02,00,000,00,03,00,000,00,04,00,000,00*79
$GPGSA,A,3,01,02,03,04,00,00,00,00,00,00,00,00,2.3,1.2,1.7*32
$GPGSA,A,3,01,02,03,04,00,00,00,00,00,00,00,00,2.7,2.4,1.6*32
$GPGSV,1,1,04,01,00,000,00,02,00,000,00,03,00,000,00,04,00,000,00*79
$GPGSV,1,1,04,01,00,000,00,02,00,000,00,03,00,000,00,04,00,000,00*79
$GPGLL,3400.106,S,15120.152,E,130151.496,A,A*49
$GPGSV,1,1,04,01,00,000,00,02,00,000,00,03,00,000,00,04,00,000,00*79
$GPRMC,130153.496,A,3400.108,S,15120.151,E,4.00,202.37,090814,0.0,E,A*1E
$GPGSA,A,3,01,02,03,04,00,00,00,00,00,00,00,00,1.0,1.0,1.9*3E
$GPGLL,3400.110,S,15120.151,E,130155.496,A,A*49
$GPGSV,1,1,04,01,00,000,00,02,00,000,00,03,00,000,00,04,00,000,00*79
$GPRMC,130157.496,A,3400.112,S,15120.150,E,4.00,202.37,090814,0.0,E,A*10
$GPGSV,1,1,04,01,00,000,00,02,00,000,00,03,00,000,00,04,00,000,00*79
$GPGLL,3400.114,S,15120.149,E,130159.496,A,A*48
$GPGLL,3400.115,S,15120.148,E,130200.496,A,A*47
$GPGLL,3400.116,S,15120.148,E,130201.496,A,A*45
$GPGLL,3400.118,S,15120.148,E,130202.496,A,A*48
$GPGSA,A,3,01,02,03,04,00,00,00,00,00,00,00,00,1.9,1.1,2.7*3B
$GPGGA,130204.496,3400.120,S,15120.148,E,1,04,1.0,2.00,M,-33.92,M,,*61
$GPGSV,1,1,04,01,00,000,00,02,00,000,00,03,00,000,00,04,00,000,00*79
$GPGLL,3400.122,S,15120.149,E,130206.496,A,A*44
$GPRMC,130207.496,A,3400.123,S,15120.149,E,4.00,172.10,090814,0.0,E,A*1D
$GPRMC,130208.496,A,3400.124,S,15120.149,E,4.00,172.10,090814,0.0,E,A*15
$GPGGA,130209.496,3400.125,S,15120.149,E,1,04,1.7,2.00,M,-33.92,M,,*6F
$GPRMC,130210.496,A,3400.126,S,15120.149,E,4.00,172.10,090814,0.0,E,A*1E
$GPGSV,1,1,04,01,00,000,00,02,00,000,00,03,00,000,00,04,00,000,00*79
$GPGSA,A,3,01,02,03,04,00,00,00,00,00,00,00,00,1.4,2.1,2.2*30
$GPRMC,130213.496,A,3400.129,S,15120.151,E,4.00,121.51,090814,0.0,E,A*18
$GPGSV,1,1,04,01,00,000,00,02,00,000,00,03,00,000,00,04,00,000,00*79
$GPRMC,130215.496,A,3400.130,S,15120.153,E,4.00,121.51,090814,0.0,E,A*14
$GPGGA,130216.496,3400.130,S,15120.154,E,1,04,1.9,2.00,M,-33.92,M,,*67
$GPGSA,A,3,01,02,03,04,00,00,00,00,00,00,00,00,1.3,1.0,2.9*3E
$GPGSA,A,3,01,02,03,04,00,00,00,00,00,00,00,00,1.6,2.2,2.8*3B
$GPGGA,130219.496,3400.132,S,15120.157,E,1,04,1.1,2.00,M,-33.92,M,,*61
$GPRMC,130220.496,A,3400.133,S,15120.158,E,4.00,121.51,090814,0.0,E,A*1A
$GPGSV,1,1,04,01,00,000,00,02,00,000,00,03,00,000,00,04,00,000,00*79
$GPGSV,1,1,04,01,00,000,00,02,00,000,00,03,00,000,00,04,00,000,00*79
$GPGLL,3400.134,S,15120.161,E,130223.496,A,A*4E
$GPRMC,130224.496,A,3400.135,S,15120.162,E,4.00,121.51,090814,0.0,E,A*11
$GPGLL,3400.135,S,15120.163,E,130225.496,A,A*4B
$GPRMC,130226.496,A,3400.135,S,15120.164,E,4.00,99.99,090814,0.0,E,A*23
$GPGGA,130227.496,3400.135,S,15120.165,E,1,04,2.4,2.00,M,-33.92,M,,*6C
$GPGGA,130228.496,3400.135,S,15120.166,E,1,04,1.0,2.00,M,-33.92,M,,*67
$GPGSV,1,1,04,01,00,000,00,02,00,000,00,03,00,000,00,04,00,000,00*79
$GPRMC,130230.496,A,3400.134,S,15120.168,E,4.00,78.04,090814,0.0,E,A*22
$GPGSV,1,1,04,01,00,000,00,02,00,000,00,03,00,000,00,04,00,000,00*79
$GPGGA,130232.496,3400.134,S,15120.171,E,1,04,2.4,2.00,M,-33.92,M,,*6C
$GPGLL,3400.134,S,15120.172,E,130233.496,A,A*4D
$GPGGA,130234.496,3400.134,S,15120.173,E,1,04,2.1,2.00,M,-33.92,M,,*6D
$GPGGA,130235.496,3400.133,S,15120.174,E,1,04,2.6,2.00,M,-33.92,M,,*6B
$GPRMC,130236.496,A,3400.132,S,15120.175,E,4.00,60.61,090814,0.0,E,A*24
$GPGSA,A,3,01,02,03,04,00,00,00,00,00,00,00,00,1.1,2.8,2.9*37
$GPRMC,130238.496,A,3400.131,S,15120.177,E,4.00,60.61,090814,0.0,E,A*2B
$GPGGA,130239.496,3400.131,S,15120.178,E,1,04,2.9,2.00,M,-33.92,M,,*66
$GPGSV,1,1,04,01,00,000,00,02,00,000,00,03,00,000,00,04,00,000,00*79
$GPGSA,A,3,01,02,03,04,00,00,00,00,00,00,00,00,2.3,1.3,2.8*3F
$GPGGA,130242.496,3400.129,S,15120.180,E,1,04,1.6,2.00,M,-33.92,M,,*68
$GPGSA,A,3,01,02,03,04,00,00,00,00,00,00,00,00,1.9,2.8,2.3*35
$GPGSV,1,1,04,01,00,000,00,02,00,000,00,03,00,000,00,04,00,000,00*79
$GPGGA,130245.496,3400.128,S,15120.183,E,1,04,1.0,2.00,M,-33.92,M,,*6B
$GPRMC,130246.496,A,3400.127,S,15120.184,E,4.00,60.61,090814,0.0,E,A*29
$GPGGA,130247.496,3400.126,S,15120.185,E,1,04,1.2,2.00,M,-33.92,M,,*63
$GPGSV,1,1,04,01,00,000,00,02,00,000,00,03,00,000,00,04,00,000,00*79
$GPGSA,A,3,01,02,03,04,00,00,00,00,00,00,00,00,2.6,1.2,1.1*31
$GPGSV,1,1,04,01,00,000,00,02,00,000,00,03,00,000,00,04,00,000,00*79
$GPGLL,3400.124,S,15120.190,E,130251.496,A,A*44
$GPRMC,130252.496,A,3400.123,S,15120.191,E,5.00,60.61,090814,0.0,E,A*2D
$GPRMC,130253.496,A,3400.122,S,15120.193,E,5.50,60.61,090814,0.0,E,A*2A
$GPGSA,A,3,01,02,03,04,00,00,00,00,00,00,00,00,1.9,1.7,2.3*39
$GPGSV,1,1,04,01,00,000,00,02,00,000,00,03,00,000,00,04,00,000,00*79
$GPGGA,130256.496,3400.120,S,15120.197,E,1,04,2.3,2.00,M,-33.92,M,,*64
$GPGSA,A,3,01,02,03,04,00,00,00,00,00,00,00,00,2.7,1.1,1.0*32
$GPGSV,1,1,04,01,00,000,00,02,00,000,00,03,00,000,00,04,00,000,00*79
$GPGGA,130259.496,3400.116,S,15120.196,E,1,04,1.3,2.00,M,-33.92,M,,*6C
$GPGSV,1,1,04,01,00,000,00,02,00,000,00,03,00,000,00,04,00,000,00*79
$GPGLL,3400.113,S,15120.195,E,130301.496,A,A*41
$GPGGA,130302.496,3400.111,S,15120.195,E,1,04,2.9,2.00,M,-33.92,M,,*6E
$GPGSV,1,1,04,01,00,000,00,02,00,000,00,03,00,000,00,04,00,000,00*79
$GPGGA,130304.496,3400.108,S,15120.194,E,1,04,1.1,2.00,M,-33.92,M,,*6A
$GPGSV,1,1,04,01,00,000,00,02,00,000,00,03,00,000,00,04,00,000,00*79
$GPGSV,1,1,04,01,00,000,00,02,00,000,00,03,00,000,00,04,00,000,00*79
$GPGSV,1,1,04,01,00,000,00,02,00,000,00,03,00,000,00,04,00,000,00*79
$GPGLL,3400.102,S,15120.192,E,130308.496,A,A*4F
$GPGGA,130309.496,3400.101,S,15120.192,E,1,04,2.4,2.00,M,-33.92,M,,*6E
$GPGSV,1,1,04,01,00,000,00,02,00,000,00,03,00,000,00,04,00,000,00*79
$GPGGA,130311.496,3400.098,S,15120.191,E,1,04,2.5,2.00,M,-33.92,M,,*64
$GPGLL,3400.096,S,15120.191,E,130312.496,A,A*4B
$GPGSA,A,3,01,02,03,04,00,00,00,00,00,00,00,00,1.4,1.5,1.9*3F
$GPGSA,A,3,01,02,03,04,00,00,00,00,00,00,00,00,2.0,1.5,2.0*32
$GPGGA,130315.496,3400.092,S,15120.190,E,1,04,1.4,2.00,M,-33.92,M,,*69
$GPRMC,130316.496,A,3400.090,S,15120.190,E,5.50,346.78,090814,0.0,E,A*1E
$GPGGA,130317.496,3400.089,S,15120.189,E,1,04,2.8,2.00,M,-33.92,M,,*66
$GPRMC,130318.496,A,3400.087,S,15120.189,E,5.50,346.78,090814,0.0,E,A*1E
$GPGSV,1,1,04,01,00,000,00,02,00,000,00,03,00,000,00,04,00,000,00*79
$GPGSA,A,3,01,02,03,04,00,00,00,00,00,00,00,00,1.4,2.1,1.7*36
$GPGSV,1,1,04,01,00,000,00,02,00,000,00,03,00,000,00,04,00,000,00*79
$GPGLL,3400.081,S,15120.188,E,130322.496,A,A*46
$GPGSV,1,1,04,01,00,000,00,02,00,000,00,03,00,000,00,04,00,000,00*79
$GPGGA,130324.496,3400.078,S,15120.187,E,1,04,1.9,2.00,M,-33.92,M,,*64
$GPRMC,130325.496,A,3400.077,S,15120.187,E,5.50,346.78,090814,0.0,E,A*11
$GPGSA,A,3,01,02,03,04,00,00,00,00,00,00,00,00,2.6,2.1,1.2*32
$GPGGA,130327.496,3400.074,S,15120.186,E,1,04,1.1,2.00,M,-33.92,M,,*62
$GPGLL,3400.072,S,15120.185,E,130328.496,A,A*4D
$GPGGA,130329.496,3400.071,S,15120.185,E,1,04,1.8,2.00,M,-33.92,M,,*63
$GPRMC,130330.496,A,3400.069,S,15120.185,E,5.50,346.78,090814,0.0,E,A*18
$GPGSV,1,1,04,01,00,000,00,02,00,000,00,03,00,000,00,04,00,000,00*79
$GPRMC,130332.496,A,3400.066,S,15120.184,E,5.50,346.78,090814,0.0,E,A*14
$GPRMC,130333.496,A,3400.065,S,15120.184,E,5.50,346.78,090814,0.0,E,A*16
$GPGSA,A,3,01,02,03,04,00,00,00,00,00,00,00,00,1.3,1.8,1.0*3C
$GPRMC,130335.496,A,3400.062,S,15120.183,E,5.50,346.78,090814,0.0,E,A*10
$GPGGA,130336.496,3400.061,S,15120.182,E,1,04,2.8,2.00,M,-33.92,M,,*68
$GPGLL,3400.060,S,15120.181,E,130337.496,A,A*44
$GPRMC,130338.496,A,3400.058,S,15120.180,E,5.50,323.30,090814,0.0,E,A*18
$GPGSA,A,3,01,02,03,04,00,00,00,00,00,00,00,00,2.7,2.5,1.8*3D
$GPGSA,A,3,01,02,03,04,00,00,00,00,00,00,00,00,1.4,2.2,1.1*33
$GPGSV,1,1,04,01,00,000,00,02,00,000,00,03,00,000,00,04,00,000,00*79
$GPGGA,130342.496,3400.053,S,15120.177,E,1,04,1.8,2.00,M,-33.92,M,,*63
$GPRMC,130343.496,A,3400.052,S,15120.176,E,5.50,323.30,090814,0.0,E,A*17
$GPGSA,A,3,01,02,03,04,00,00,00,00,00,00,00,00,1.7,2.0,2.9*39
$GPRMC,130345.496,A,3400.050,S,15120.174,E,5.50,323.30,090814,0.0,E,A*11
$GPRMC,130346.496,A,3400.048,S,15120.173,E,5.50,323.30,090814,0.0,E,A*1C
$GPRMC,130347.496,A,3400.047,S,15120.172,E,5.50,323.30,090814,0.0,E,A*13
$GPGGA,130348.496,3400.046,S,15120.171,E,1,04,1.9,2.00,M,-33.92,M,,*6A
$GPGGA,130349.496,3400.045,S,15120.170,E,1,04,1.4,2.00,M,-33.92,M,,*64
$GPRMC,130350.496,A,3400.044,S,15120.169,E,5.50,323.30,090814,0.0,E,A*1C
$GPGSV,1,1,04,01,00,000,00,02,00,000,00,03,00,000,00,04,00,000,00*79
$GPGLL,3400.043,S,15120.167,E,130352.496,A,A*4E
$GPGSV,1,1,04,01,00,000,00,02,00,000,00,03,00,000,00,04,00,000,00*79
$GPGSA,A,3,01,02,03,04,00,00,00,00,00,00,00,00,1.0,2.7,2.4*34
$GPGGA,130355.496,3400.046,S,15120.163,E,1,04,1.7,2.00,M,-33.92,M,,*6B
$GPGLL,3400.047,S,15120.162,E,130356.496,A,A*4B
$GPGSA,A,3,01,02,03,04,00,00,00,00,00,00,00,00,1.4,1.9,1.8*32
$GPGSA,A,3,01,02,03,04,00,00,00,00,00,00,00,00,1.4,1.6,2.5*33
$GPGLL,3400.051,S,15120.161,E,130359.496,A,A*40
$GPGGA,130400.496,3400.053,S,15120.161,E,1,04,1.2,2.00,M,-33.92,M,,*6F
$GPGGA,130401.496,3400.054,S,15120.161,E,1,04,2.6,2.00,M,-33.92,M,,*6E
$GPGGA,130402.496,3400.056,S,15120.161,E,1,04,1.4,2.00,M,-33.92,M,,*6E
$GPRMC,130403.496,A,3400.057,S,15120.161,E,5.50,171.01,090814,0.0,E,A*10
$GPGLL,3400.059,S,15120.162,E,130404.496,A,A*44
$GPGSV,1,1,04,01,00,000,00,02,00,000,00,03,00,000,00,04,00,000,00*79
$GPGLL,3400.062,S,15120.162,E,130406.496,A,A*4E
$GPGLL,3400.064,S,15120.162,E,130407.496,A,A*49
$GPGLL,3400.065,S,15120.163,E,130408.496,A,A*46
$GPGLL,3400.066,S,15120.164,E,130409.496,A,A*43
$GPRMC,130410.496,A,3400.067,S,15120.165,E,6.00,120.76,090814,0.0,E,A*17
$GPRMC,130411.496,A,3400.068,S,15120.167,E,6.00,120.76,090814,0.0,E,A*1B
$GPGSV,1,1,04,01,00,000,00,02,00,000,00,03,00,000,00,04,00,000,00*79
$GPRMC,130413.496,A,3400.070,S,15120.170,E,6.00,120.76,090814,0.0,E,A*16
$GPGSA,A,3,01,02,03,04,00,00,00,00,00,00,00,00,1.5,2.8,1.5*3C
$GPGLL,3400.071,S,15120.173,E,130415.496,A,A*4E
$GPRMC,130416.496,A,3400.072,S,15120.174,E,5.00,120.76,090814,0.0,E,A*16
$GPRMC,130417.496,A,3400.072,S,15120.175,E,3.50,120.76,090814,0.0,E,A*15
$GPGGA,130418.496,3400.073,S,15120.175,E,1,04,2.2,2.00,M,-33.92,M,,*62
$GPGSV,1,1,04,01,00,000,00,02,00,000,00,03,00,000,00,04,00,000,00*79
$GPRMC,130420.496,A,3400.074,S,15120.176,E,3.50,218.61,090814,0.0,E,A*1A
$GPGSV,1,1,04,01,00,000,00,02,00,000,00,03,00,000,00,04,00,000,00*79
$GPGLL,3400.074,S,15120.174,E,130422.496,A,A*48
$GPGSV,1,1,04,01,00,000,00,02,00,000,00,03,00,000,00,04,00,000,00*79
$GPGLL,3400.073,S,15120.175,E,130424.496,A,A*48
$GPGGA,130425.496,3400.073,S,15120.176,E,1,04,2.4,2.00,M,-33.92,M,,*69
$GPGSA,A,3,01,02,03,04,00,00,00,00,00,00,00,00,2.6,2.8,2.5*3F
$GPGSA,A,3,01,02,03,04,00,00,00,00,00,00,00,00,1.7,1.8,1.0*38
$GPGGA,130428.496,3400.075,S,15120.178,E,1,04,1.5,2.00,M,-33.92,M,,*6E
$GPRMC,130429.496,A,3400.075,S,15120.179,E,3.50,111.00,090814,0.0,E,A*10
$GPGGA,130430.496,3400.075,S,15120.180,E,1,04,1.1,2.00,M,-33.92,M,,*64
$GPGSV,1,1,04,01,00,000,00,02,00,000,00,03,00,000,00,04,00,000,00*79
$GPGSV,1,1,04,01,00,000,00,02,00,000,00,03,00,000,00,04,00,000,00*79
$GPGSV,1,1,04,01,00,000,00,02,00,000,00,03,00,000,00,04,00,000,00*79
$GPGLL,3400.078,S,15120.187,E,130434.496,A,A*4F
$GPRMC,130435.496,A,3400.079,S,15120.189,E,6.50,111.00,090814,0.0,E,A*1B
$GPRMC,130436.496,A,3400.079,S,15120.190,E,6.50,111.00,090814,0.0,E,A*10
$GPGSV,1,1,04,01,00,000,00,02,00,000,00,03,00,000,00,04,00,000,00*79
$GPRMC,130438.496,A,3400.081,S,15120.194,E,6.50,111.00,090814,0.0,E,A*1D
$GPGSA,A,3,01,02,03,04,00,00,00,00,00,00,00,00,1.8,1.9,2.3*36
$GPGGA,130440.496,3400.082,S,15120.197,E,1,04,2.5,2.00,M,-33.92,M,,*6A
$GPGGA,130441.496,3400.082,S,15120.199,E,1,04,1.5,2.00,M,-33.92,M,,*66
$GPGLL,3400.083,S,15120.201,E,130442.496,A,A*47
$GPGGA,130443.496,3400.083,S,15120.202,E,1,04,1.2,2.00,M,-33.92,M,,*63
$GPGGA,130444.496,3400.084,S,15120.204,E,1,04,1.9,2.00,M,-33.92,M,,*6E
$GPGSA,A,3,01,02,03,04,00,00,00,00,00,00,00,00,2.8,1.1,1.2*3F
$GPGSV,1,1,04,01,00,000,00,02,00,000,00,03,00,000,00,04,00,000,00*79
$GPRMC,130447.496,A,3400.085,S,15120.209,E,6.50,84.19,090814,0.0,E,A*23
$GPGSV,1,1,04,01,00,000,00,02,00,000,00,03,00,000,00,04,00,000,00*79
$GPGGA,130449.496,3400.084,S,15120.213,E,1,04,2.8,2.00,M,-33.92,M,,*67
$GPGSA,A,3,01,02,03,04,00,00,00,00,00,00,00,00,1.4,1.8,1.7*3C
$GPRMC,130451.496,A,3400.082,S,15120.216,E,6.50,55.78,090814,0.0,E,A*26
$GPGSV,1,1,04,01,00,000,00,02,00,000,00,03,00,000,00,04,00,000,00*79
$GPRMC,130453.496,A,3400.080,S,15120.218,E,6.50,55.78,090814,0.0,E,A*28
$GPGSA,A,3,01,02,03,04,00,00,00,00,00,00,00,00,1.2,1.5,2.9*3A
$GPGSV,1,1,04,01,00,000,00,02,00,000,00,03,00,000,00,04,00,000,00*79
$GPGLL,3400.077,S,15120.223,E,130456.496,A,A*49
$GPRMC,130457.496,A,3400.077,S,15120.225,E,6.50,73.01,090814,0.0,E,A*20
$GPGGA,130458.496,3400.077,S,15120.227,E,1,04,2.6,2.00,M,-33.92,M,,*62
$GPGLL,3400.077,S,15120.229,E,130459.496,A,A*4C
$GPGSV,1,1,04,01,00,000,00,02,00,000,00,03,00,000,00,04,00,000,00*79
$GPGGA,130501.496,3400.078,S,15120.232,E,1,04,1.1,2.00,M,-33.92,M,,*60
$GPGGA,130502.496,3400.078,S,15120.234,E,1,04,2.2,2.00,M,-33.92,M,,*65
$GPGLL,3400.078,S,15120.236,E,130503.496,A,A*43
$GPGGA,130504.496,3400.079,S,15120.237,E,1,04,2.4,2.00,M,-33.92,M,,*67
$GPGSA,A,3,01,02,03,04,00,00,00,00,00,00,00,00,2.3,1.8,1.0*3F
$GPRMC,130506.496,A,3400.079,S,15120.241,E,6.50,96.39,090814,0.0,E,A*29
$GPRMC,130507.496,A,3400.079,S,15120.243,E,6.50,96.39,090814,0.0,E,A*2A
$GPGSV,1,1,04,01,00,000,00,02,00,000,00,03,00,000,00,04,00,000,00*79
$GPRMC,130509.496,A,3400.080,S,15120.246,E,6.50,96.39,090814,0.0,E,A*27
$GPGSV,1,1,04,01,00,000,00,02,00,000,00,03,00,000,00,04,00,000,00*79
$GPGSV,1,1,04,01,00,000,00,02,00,000,00,03,00,000,00,04,00,000,00*79
$GPGSA,A,3,01,02,03,04,00,00,00,00,00,00,00,00,1.8,2.4,2.5*3E
$GPGSV,1,1,04,01,00,000,00,02,00,000,00,03,00,000,00,04,00,000,00*79
$GPGSV,1,1,04,01,00,000,00,02,00,000,00,03,00,000,00,04,00,000,00*79
$GPGGA,130515.496,3400.081,S,15120.257,E,1,04,1.0,2.00,M,-33.92,M,,*61
$GPGSA,A,3,01,02,03,04,00,00,00,00,00,00,00,00,2.2,2.6,1.2*31
$GPRMC,130517.496,A,3400.081,S,15120.261,E,6.50,96.39,090814,0.0,E,A*2C
$GPGSV,1,1,04,01,00,000,00,02,00,000,00,03,00,000,00,04,00,000,00*79
$GPGLL,3400.082,S,15120.264,E,130519.496,A,A*4A
$GPRMC,130520.496,A,3400.082,S,15120.266,E,6.50,96.39,090814,0.0,E,A*2C
$GPGGA,130521.496,3400.082,S,15120.268,E,1,04,1.3,2.00,M,-33.92,M,,*6A
$GPGGA,130522.496,3400.082,S,15120.270,E,1,04,1.6,2.00,M,-33.92,M,,*65
$GPGSV,1,1,04,01,00,000,00,02,00,000,00,03,00,000,00,04,00,000,00*79
$GPGSA,A,3,01,02,03,04,00,00,00,00,00,00,00,00,2.3,2.4,1.6*36
$GPRMC,130525.496,A,3400.083,S,15120.275,E,6.50,96.39,090814,0.0,E,A*2A
$GPRMC,130526.496,A,3400.083,S,15120.277,E,6.50,96.39,090814,0.0,E,A*2B
$GPGSA,A,3,01,02,03,04,00,00,00,00,00,00,00,00,2.5,2.8,1.7*3D
$GPGSV,1,1,04,01,00,000,00,02,00,000,00,03,00,000,00,04,00,000,00*79
$GPGGA,130529.496,3400.084,S,15120.282,E,1,04,2.6,2.00,M,-33.92,M,,*66
$GPGGA,130530.496,3400.084,S,15120.284,E,1,04,1.2,2.00,M,-33.92,M,,*6F
$GPRMC,130531.496,A,3400.084,S,15120.286,E,6.50,96.39,090814,0.0,E,A*24
$GPGSA,A,3,01,02,03,04,00,00,00,00,00,00,00,00,2.7,2.5,2.2*34
$GPRMC,130533.496,A,3400.085,S,15120.289,E,6.50,96.39,090814,0.0,E,A*28
$GPGSA,A,3,01,02,03,04,00,00,00,00,00,00,00,00,1.3,2.1,1.7*31
$GPRMC,130535.496,A,3400.085,S,15120.293,E,6.50,96.39,090814,0.0,E,A*25
$GPGGA,130536.496,3400.085,S,15120.295,E,1,04,2.2,2.00,M,-33.92,M,,*6B
$GPGSV,1,1,04,01,00,000,00,02,00,000,00,03,00,000,00,04,00,000,00*79
$GPRMC,130538.496,A,3400.086,S,15120.298,E,6.50,96.39,090814,0.0,E,A*20
$GPGLL,3400.086,S,15120.300,E,130539.496,A,A*4F
$GPRMC,130540.496,A,3400.086,S,15120.302,E,6.50,96.39,090814,0.0,E,A*2D
$GPGLL,3400.086,S,15120.304,E,130541.496,A,A*44
$GPGSA,A,3,01,02,03,04,00,00,00,00,00,00,00,00,1.0,2.8,1.8*34
$GPGSA,A,3,01,02,03,04,00,00,00,00,00,00,00,00,2.1,2.4,1.4*36
$GPGGA,130544.496,3400.086,S,15120.309,E,1,04,2.2,2.00,M,-33.92,M,,*69
$GPGLL,3400.086,S,15120.311,E,130545.496,A,A*44
$GPGSA,A,3,01,02,03,04,00,00,00,00,00,00,00,00,2.3,1.6,1.2*33
$GPGLL,3400.085,S,15120.314,E,130547.496,A,A*40
$GPRMC,130548.496,A,3400.085,S,15120.316,E,6.50,82.68,090814,0.0,E,A*22
$GPGSA,A,3,01,02,03,04,00,00,00,00,00,00,00,00,1.2,2.4,2.8*39
$GPGLL,3400.085,S,15120.320,E,130550.496,A,A*41
$GPRMC,130551.496,A,3400.086,S,15120.322,E,6.50,106.62,090814,0.0,E,A*19
$GPGLL,3400.086,S,15120.323,E,130552.496,A,A*43
$GPGLL,3400.086,S,15120.325,E,130553.496,A,A*44
$GPGSV,1,1,04,01,00,000,00,02,00,000,00,03,00,000,00,04,00,000,00*79
$GPGSA,A,3,01,02,03,04,00,00,00,00,00,00,00,00,1.6,1.7,2.8*3D
$GPRMC,130556.496,A,3400.088,S,15120.330,E,6.50,101.59,090814,0.0,E,A*1C
$GPGSA,A,3,01,02,03,04,00,00,00,00,00,00,00,00,2.2,1.1,1.7*30
